timestamp,torque_on,present_roll,present_pitch,present_yaw,target_roll,target_pitch,target_yaw,present_pos_top,present_pos_mid,present_pos_bot,present_velocity_top,present_velocity_mid,present_velocity_bot,present_torque_top,present_torque_mid,present_torque_bot,axis_sensor_top,axis_sensor_mid,axis_sensor_bot,board_state
0.00031182,false,-0.0014005776497369395,0.0006729784738607621,0.34992770265510814,0.0,0.0,0.0,1.8620775938034058,1.8721119165420532,1.8646461963653564,0.00007883035868871957,9.630783635435484e-18,2.833720807693588e-18,15243.330078125,5512.08837890625,-11416.1669921875,1.847792625427246,1.8566134770711262,1.8719542821248372,0
0.008342451,false,-0.0014005776497369395,0.0006729784738607621,0.34992770265510814,0.0,0.0,0.0,1.8620775938034058,1.8721119165420532,1.8646461963653564,0.0000675433111609891,1.0004949686537108e-17,2.7117567486854007e-18,15243.548828125,5512.1005859375,-11416.1328125,1.847792625427246,1.8558465639750161,1.8715709050496419,0
0.103500515,true,-0.0013299174437425001,0.0007935659140303041,0.34996177835683606,0.0,0.0,0.012566370614359173,1.8626765012741089,1.8723840713500977,1.8643194437026978,0.00596062233671546,0.0024637505412101746,-0.0030581133905798197,-484.35321044921875,-174.81712341308594,359.6348571777344,1.8489432334899902,1.856230099995931,1.871187369028727,0
0.106434909,true,-0.0013299174437425001,0.0007935659140303041,0.34996177835683606,0.0,0.0,0.025132741228718346,1.8626765012741089,1.8723840713500977,1.8643194437026978,0.005335282534360886,0.0020907074213027954,-0.0023964487481862307,-407.6015930175781,-147.17007446289062,302.0030517578125,1.847792625427246,1.8554630279541016,1.8715709050496419,0
0.113089015,true,-0.0013283010073549461,0.0008028193220159366,0.3499481716450027,0.0,0.0,0.03769911184307752,1.8621864318847656,1.8716763257980347,1.8631213903427124,0.004566746298223734,0.001482548424974084,-0.00219644489698112,-334.7023620605469,-122.03211212158203,244.18209838867188,1.8470255533854165,1.8554630279541016,1.8692696889241536,0
0.121506692,true,-0.0015267004149540464,0.0011866899102927473,0.34311480432559316,0.0,0.0,0.05026548245743669,1.8160109519958496,1.827406644821167,1.8162925243377686,-0.10530193150043488,-0.10639424622058868,-0.12413465976715088,-265.444580078125,-146.51394653320312,74.31170654296875,1.804838498433431,1.81519349416097,1.827082633972168,0
0.13169198,true,-0.001439792160280914,0.0016725138627148696,0.3148101826023919,0.0,0.0,0.06283185307179587,1.632125973701477,1.6440119743347168,1.62973952293396,-1.7518360614776611,-1.722264051437378,-1.80484139919281,-295.638671875,-285.16650390625,-180.9562530517578,1.618831952412923,1.6291869481404622,1.6364739735921223,0
0.1433362,true,-0.001187752685366287,0.0010671333027511241,0.2629779800938435,0.0,0.0,0.07539822368615504,1.3488115072250366,1.3578113317489624,1.3502365350723267,-6.420554161071777,-6.379415512084961,-6.49852991104126,-313.4936828613281,-358.5308837890625,-292.0492248535156,1.3327271938323975,1.3380963007609048,1.355738321940104,0
0.152708816,true,-0.0009680441798265419,0.000887414184459826,0.22329574539364064,0.0,0.0,0.0879645943005142,1.188014030456543,1.1959795951843262,1.1887314319610596,-10.445241928100586,-10.436717987060547,-10.486854553222656,-246.15040588378906,-294.9356384277344,-262.7527160644531,1.1708823839823403,1.174333890279134,1.194276968638102,0
0.162604209,true,-0.0007666647037772552,0.0007699026120074953,0.19078768486899722,0.0,0.0,0.10053096491487337,0.9375343322753906,0.9439204931259155,0.9390138387680054,-16.452119827270508,-16.514711380004883,-16.44728660583496,-113.25330352783203,-167.9420166015625,-175.0224151611328,0.9254304567972819,0.9258139133453369,0.9484415054321289,0
0.173059974,true,-0.0005946012477959245,0.0005208654241485775,0.16077759696462668,0.0,0.0,0.11309733552923254,0.7989535331726074,0.8034884333610535,0.7998886108398438,-18.980531692504883,-19.088136672973633,-18.954832077026367,-11.0867338180542,-78.44254302978516,-77.28719329833984,0.7877472241719563,0.7865966161092122,0.8099912802378336,0
0.182370231,true,-0.0004730696429825511,0.00032892169964748836,0.13673689172153605,0.0,0.0,0.1256637061435917,0.6897770166397095,0.6930049657821655,0.6906575560569763,-19.253990173339844,-19.391468048095703,-19.221406936645508,60.847145080566406,1.6310327053070068,-3.2578840255737305,0.6811290582021077,0.6776773929595947,0.703373114267985,0
0.193248006,true,-0.0003290804482054301,0.00020630001773827098,0.1202616658478509,0.0,0.0,0.13823007675795088,0.630260705947876,0.6320185661315918,0.6305423974990845,-17.516530990600586,-17.662853240966797,-17.48891830444336,95.82955169677734,41.367218017578125,28.963661193847656,0.6239847342173258,0.6186155080795288,0.6443112691243489,0
0.202375079,true,-0.00048435836027449817,-0.0000707739206537518,0.11390432865311205,0.0,0.0,0.15079644737231004,0.6015645265579224,0.6027233004570007,0.6026084423065186,-14.883487701416016,-15.026745796203613,-14.862687110900879,102.39303588867188,58.34626388549805,36.83738708496094,0.5963714122772217,0.5898516178131104,0.6178484757741292,0
0.212573731,true,-0.00035922329439067534,0.00011580485666270065,0.11153229170995739,0.0,0.0,0.1633628179866692,0.5919263958930969,0.5966790914535522,0.5953118205070496,-10.466704368591309,-10.587230682373047,-10.454866409301758,80.74781799316406,52.14777374267578,26.4733943939209,0.5875505208969116,0.5848658879597981,0.6113286813100178,0
0.222724336,true,-0.0006424736189676009,0.00003479096278296459,0.11219251530907026,0.0,0.0,0.17592918860102838,0.601401150226593,0.6022332310676575,0.6019550561904907,-6.848161220550537,-6.898129940032959,-6.80958890914917,56.09590148925781,14.041268348693848,-0.01559363305568695,0.594070315361023,0.5902351140975952,0.6166979074478149,0
0.23267992,true,0.000340224889041419,0.00005685030953018629,0.11584079043124548,0.0,0.0,0.18849555921538755,0.6282460689544678,0.6299493312835693,0.6320670247077942,-2.9769506454467773,-3.049889087677002,-2.9922749996185303,57.462730407714844,29.835777282714844,18.0894718170166,0.6170814832051594,0.6178484757741292,0.6458453337351481,0
0.244331312,true,-0.000016412581730961723,0.0003421959898474095,0.12388270256694418,0.0,0.0,0.20106192982974672,0.6718077659606934,0.6718230843544006,0.6720893383026123,0.017296617850661278,-0.03323076292872429,0.009075171314179897,78.32158660888672,49.7491455078125,42.7269401550293,0.6608025232950846,0.6592684984207153,0.6834301153818766,0
0.253485121,true,-0.00011243634584918812,-0.00009565136363082735,0.1301889365781689,0.0,0.0,0.21362830044410588,0.7025188207626343,0.703568696975708,0.703998327255249,1.4712697267532349,1.4286231994628906,1.4576561450958252,89.13753509521484,62.22761154174805,55.52328872680664,0.6914840539296467,0.6918675899505615,0.713728109995524,0
0.262785157,true,-0.00003542176693056901,0.00006970579893247086,0.13725411270330037,0.0,0.0,0.22619467105846505,0.7507632970809937,0.7512688040733337,0.752242922782898,2.9972426891326904,2.970162868499756,2.9869322776794434,96.13629150390625,69.76017761230469,66.87785339355469,0.7390403747558594,0.7409578959147135,0.7628184954325358,0
0.273186155,true,-0.00013585920093920747,-0.00018335608103772164,0.14769529423234437,0.0,0.0,0.23876104167282422,0.7981367707252502,0.7984243035316467,0.7993440628051758,3.9219205379486084,3.903303623199463,3.9129629135131836,96.474609375,73.58534240722656,72.29191589355469,0.7865966161092122,0.7865966161092122,0.8099912802378336,0
0.282942141,true,-0.00015467587441100517,-0.0001464266003608015,0.1549442408982015,0.0,0.0,0.2513274122871834,0.8547669649124146,0.8545100092887878,0.8553752899169922,4.597949981689453,4.582435131072998,4.594268798828125,95.98798370361328,77.56417846679688,74.44134521484375,0.8418233394622803,0.8433574040730794,0.8644509315490723,0
0.293237001,true,-0.00011040133395030666,-0.00003416968389468844,0.1670088115845646,0.0,0.0,0.2638937829015426,0.9080211520195007,0.9086354374885559,0.9094462990760803,5.014782905578613,5.0018815994262695,5.009857654571533,93.5155258178711,77.389892578125,74.28881072998047,0.8955159187316895,0.8966665267944336,0.9185270468393961,0
0.303262474,true,-0.0001319757744545332,-0.00007219839350796026,0.17729005858737854,0.0,0.0,0.27646015351590175,0.9638890624046326,0.9636865854263306,0.9642795920372009,5.317610263824463,5.312941551208496,5.317277908325195,91.45299530029297,73.84922790527344,73.0809555053711,0.9518931706746419,0.953427235285441,0.9741372267405192,0
0.312219447,true,-0.00009136008794734921,-0.000132189358422012,0.18890877954286736,0.0,0.0,0.2890265241302609,1.0194847583770752,1.0197722911834717,1.0208009481430054,5.552711009979248,5.5486321449279785,5.549996376037598,86.59471893310547,69.44983673095703,70.37643432617188,1.0067362785339355,1.0082704226175943,1.029747486114502,0
0.32144221,true,-0.0001146265167698603,-0.0001543736120259894,0.19713786104639994,0.0,0.0,0.3015928947446201,1.0642988681793213,1.0641509294509888,1.0645805597305298,5.690235137939453,5.686611175537109,5.690253257751465,84.09386444091797,67.95955657958984,68.75181579589844,1.0519916216532388,1.0527585347493489,1.073468526204427,0
0.331476885,true,-0.00012489883813705054,-0.00014213840415321462,0.21186716711959927,0.0,0.0,0.31415926535897926,1.136230230331421,1.136681079864502,1.137110710144043,5.867385387420654,5.861854076385498,5.86343240737915,82.29544830322266,67.14382934570312,66.08926391601562,1.1240930557250977,1.1248600482940674,1.1432689030965169,0
0.341803169,true,-5.481306676843152e-6,-0.00009180793569924778,0.22191360567674498,0.0,0.0,0.3267256359733384,1.1969987154006958,1.196905255317688,1.1977704763412476,5.999602317810059,5.999085903167725,5.997689723968506,82.29887390136719,65.0079116821289,65.10415649414062,1.183921972910563,1.1854560375213623,1.2042484283447266,0
0.352427355,true,-0.00004071399057616465,-0.00010060617974046494,0.2349072450779318,0.0,0.0,0.3392920065876976,1.2660987377166748,1.2663861513137817,1.2671970129013062,6.157273769378662,6.154645919799805,6.153138637542725,80.74369049072266,63.48096466064453,64.09197235107422,1.2533388137817383,1.254489262898763,1.2736652692159016,0
0.361650206,true,-0.00004350314300910759,-0.00008534427880736699,0.246781220665808,0.0,0.0,0.35185837720205676,1.3302977085113525,1.3306397199630737,1.330415964126587,6.302467346191406,6.296743392944336,6.299162864685059,79.43854522705078,63.59190368652344,63.2345085144043,1.3181535402933755,1.319687525431315,1.3365624745686848,0
0.372046494,true,-0.0001305770998952988,-0.00010076679162680701,0.2587096327320943,0.0,0.0,0.36442474781641593,1.4009220600128174,1.4009374380111694,1.4012037515640259,6.456837177276611,6.455361366271973,6.453172206878662,78.39287567138672,60.73004150390625,61.89814376831055,1.3887208302815754,1.3902549743652344,1.4071297645568848,0
0.381379215,true,-0.00004378032429103074,-0.0001293176841882208,0.2732960180939952,0.0,0.0,0.3769911184307751,1.4715466499328613,1.471453070640564,1.4721004962921143,6.579100608825684,6.578530311584473,6.574027061462402,77.39887237548828,59.47766876220703,61.14616775512695,1.4592882792154946,1.4619728724161782,1.4796147346496582,0
0.391254745,true,0.000027442704073726315,-0.00011784169903311432,0.2850168512539472,0.0,0.0,0.38955748904513426,1.5338943004608154,1.5338551998138428,1.534611463546753,6.645717620849609,6.643856048583984,6.6430792808532715,76.42486572265625,59.86418151855469,58.732574462890625,1.521418253580729,1.522952397664388,1.542511781056722,0
0.401486689,true,-0.00005760370610407163,-0.00005911525268925854,0.29686699637381375,0.0,0.0,0.40212385965949343,1.5965687036514282,1.5971286296844482,1.5974493026733398,6.671548366546631,6.670377731323242,6.667944431304932,75.01465606689453,59.589054107666016,58.60877990722656,1.584315299987793,1.5850823720296223,1.6050254503885903,0
0.412535955,true,-0.00004394244881866445,-0.000038695144435102294,0.3100137851081173,0.0,0.0,0.4146902302738526,1.6742175817489624,1.6742873191833496,1.6747169494628906,6.6698899269104,6.671871185302734,6.667662620544434,76.26065063476562,59.532928466796875,60.26521301269531,1.6629366874694824,1.6614025433858235,1.6828797658284504,0
0.422621078,true,-0.00006394603901677329,-0.00014028640561392465,0.3231605693544576,0.0,0.0,0.42725660088821177,1.7305210828781128,1.7303730249404907,1.7308571338653564,6.666463851928711,6.66618013381958,6.6650614738464355,77.075927734375,60.14566421508789,60.41200256347656,1.71893040339152,1.71893040339152,1.7404074668884277,0
0.432148317,true,-0.0000833605030082229,-0.00012275588826749992,0.33636183525070373,0.0,0.0,0.43982297150257094,1.8005465269088745,1.8009973764419556,1.8014270067214966,6.66269588470459,6.660105228424072,6.659533977508545,78.61820983886719,61.64360809326172,59.8621940612793,1.7887307802836099,1.7887307802836099,1.8098243077596028,0
0.441939402,true,0.00004299544396910729,-0.00006976733292227917,0.34817793370268846,0.0,0.0,0.4523893421169301,1.878413200378418,1.8785374164581299,1.8785314559936523,6.656748294830322,6.658953666687012,6.655558109283447,79.62889099121094,58.49842834472656,60.41699981689453,1.8658180236816406,1.8662015597025552,1.886144479115804,0
0.454148864,true,-0.00003494379585382353,-0.00009900477702951921,0.3614710626588441,0.0,0.0,0.4649557127312893,1.9413597583770752,1.941756248474121,1.942403793334961,6.660806179046631,6.660549163818359,6.657989978790283,79.968505859375,58.8501091003418,61.96312713623047,1.9287150700887044,1.9287150700887044,1.9517262776692708,0
0.461829179,true,-0.000012185985958771616,-0.0000647591191708008,0.3720858316647761,0.0,0.0,0.47752208334564844,1.9916737079620361,1.9917434453964233,1.9915741682052612,6.666253566741943,6.663392066955566,6.664680004119873,78.23770141601562,59.42538070678711,62.2153434753418,1.9797231356302896,1.977805455525716,1.998898983001709,0
0.472570749,true,-0.0001242475851135023,-0.00011068932489503553,0.38511010316829264,0.0,0.0,0.4900884539600076,2.081465005874634,2.081099271774292,2.0816378593444824,6.669582366943359,6.670456886291504,6.6691155433654785,74.98147583007812,57.36287307739258,59.9837532043457,2.068315823872884,2.068699359893799,2.0874916712443032,0
0.483279364,true,-0.000018517777013346472,-0.0001301345301437126,0.3995025145877033,0.0,0.0,0.5026548245743668,2.151272773742676,2.151451587677002,2.151935577392578,6.65231990814209,6.651894569396973,6.649906635284424,74.35404968261719,57.73964309692383,60.30243682861328,2.136582056681315,2.140033721923828,2.158826192220052,0
0.493283119,true,0.00006227257792326914,-0.00007810203617459668,0.40995051209927935,0.0,0.0,0.515221195188726,2.214709520339966,2.214833974838257,2.2145557403564453,6.636792182922363,6.63320255279541,6.635636329650879,73.89022827148438,58.70925521850586,59.63502502441406,2.2002463340759277,2.201396624247233,2.2198057174682617,0
0.502381391,true,-0.00004883790961890301,-0.00005652916836450011,0.4218108640218499,0.0,0.0,0.5277875658030852,2.26981520652771,2.2703750133514404,2.270641326904297,6.628714561462402,6.626416206359863,6.625706672668457,73.13644409179688,57.80654525756836,58.787574768066406,2.2539389928181963,2.2570069630940752,2.277333577473958,0
0.513318089,true,9.693282646450988e-6,-0.00004818063382032449,0.43483851873383383,0.0,0.0,0.5403539364174443,2.333306312561035,2.333376169204712,2.3330979347229004,6.619256019592285,6.61889123916626,6.617117881774902,72.59255981445312,56.48942947387695,59.02193069458008,2.3153018951416016,2.3191370964050293,2.3390798568725586,0
0.521407251,true,-0.000019362035759670936,-0.00011625222065660171,0.44665127880069133,0.0,0.0,0.5529203070318035,2.3961987495422363,2.3961594104766846,2.396698236465454,6.6162309646606445,6.613315582275391,6.613173007965088,73.37311553955078,58.28197479248047,59.26286315917969,2.37934939066569,2.3797327677408853,2.402360439300537,0
0.531661837,true,0.00004747380603293126,0.000015470608352954556,0.45994099937908633,0.0,0.0,0.5654866776461627,2.4601800441741943,2.4597597122192383,2.4602980613708496,6.624434947967529,6.616621017456055,6.62000846862793,72.1776351928711,61.268829345703125,59.06108474731445,2.4410958290100098,2.442246437072754,2.464873949686686,0
0.54174169,true,0.00019813094344977696,-0.000052469912301552196,0.47329198343850837,0.0,0.0,0.5780530482605218,2.5320024490356445,2.530656337738037,2.531630516052246,6.650643825531006,6.638071060180664,6.642666816711426,69.23600006103516,66.19094848632812,58.430023193359375,2.513197422027588,2.513197422027588,2.5358250935872393,0
0.55335,true,0.00011549776618609793,-0.00011218989554584025,0.48821190647500406,0.0,0.0,0.590619418874881,2.6185812950134277,2.617616653442383,2.618645191192627,6.7077226638793945,6.68733024597168,6.696672439575195,63.78287887573242,74.99046325683594,60.69404602050781,2.599872589111328,2.599489212036133,2.6225001017252603,0
0.562488308,true,0.00012629575467213228,-0.00005044725974859652,0.4976695211797992,0.0,0.0,0.6031857894892402,2.675973892211914,2.675499200820923,2.67565655708313,6.748183250427246,6.725940227508545,6.7384114265441895,59.035972595214844,77.3200912475586,60.49135971069336,2.6577839851379395,2.6566333770751953,2.680027961730957,0
0.573063706,true,0.00012719490762372966,-0.000029832977126369077,0.5122525114914107,0.0,0.0,0.6157521601035993,2.746652841567993,2.745143413543701,2.746063232421875,6.775093078613281,6.762698650360107,6.769006729125977,56.004730224609375,75.08082580566406,58.3344612121582,2.728351275126139,2.7272008260091143,2.748677571614583,0
0.582463689,true,0.00014381525059896128,-0.00008451733975761231,0.5242490233165534,0.0,0.0,0.6283185307179585,2.8034462928771973,2.802427053451538,2.8035645484924316,6.775498390197754,6.76377010345459,6.768146991729736,54.689117431640625,75.34963989257812,59.901344299316406,2.7862628300984698,2.7831945419311523,2.806972821553548,0
0.592329844,true,0.0002579996802503615,-0.000053269341589040624,0.5361127475087873,0.0,0.0,0.6408849013323177,2.874070644378662,2.8726704120635986,2.873753309249878,6.760619163513184,6.749265670776367,6.756420612335205,53.65178298950195,76.63507843017578,58.952754974365234,2.856446584065755,2.8541456858317056,2.8775399525960283,0
0.601721141,true,0.000152356061840357,-0.0000199878669962144,0.5480820402829951,0.0,0.0,0.6534512719466768,2.937180995941162,2.936433792114258,2.937190294265747,6.740073204040527,6.729586601257324,6.735070705413818,52.31084060668945,77.5013427734375,59.69528579711914,2.9204940795898438,2.919343630472819,2.941204071044922,0
0.61276132,true,0.00021849012603239733,-0.00004395660971048316,0.559894745384321,0.0,0.0,0.666017642561036,3.0149929523468018,3.013592481613159,3.0146210193634033,6.7100043296813965,6.702048301696777,6.706040382385254,51.861549377441406,79.02781677246094,60.63214874267578,2.9991156260172525,2.998348553975423,3.0194422403971353,0
0.623264819,true,0.00018030390921594812,-0.0000755329567093436,0.5745219805393545,0.0,0.0,0.6785840131753952,3.079028844833374,3.077247142791748,3.078439235687256,6.693548202514648,6.684795379638672,6.690951347351074,52.48126220703125,83.08403778076172,61.635398864746094,3.063163121541341,3.0620123545328775,3.0834897359212237,0
0.633459336,true,0.00015373630545963582,-0.00002307454248551861,0.5892206150151337,0.0,0.0,0.6911503837897544,3.1565685272216797,3.1558759212493896,3.1565234661102295,6.693363666534424,6.686525344848633,6.689838886260986,51.9874153137207,84.32002258300781,60.966278076171875,3.1421680450439453,3.1394831339518228,3.162110646565755,0
0.642635536,true,0.00023410381740862282,-6.278527518816431e-6,0.5983039297066152,0.0,0.0,0.7037167544041135,3.2055211067199707,3.2039029598236084,3.2051494121551514,6.6911821365356445,6.691086292266846,6.690762042999268,52.73651885986328,82.66790008544922,59.759647369384766,3.1924088795979815,3.188190142313639,3.2112013498942056,0
0.653023212,true,0.00022129781857689197,-0.0000422605355045533,0.6100485669652641,0.0,0.0,0.7162831250184727,3.281318426132202,3.2804081439971924,3.281599998474121,6.672458648681641,6.671998977661133,6.671176910400391,51.87350082397461,81.01094818115234,58.932743072509766,3.270263036092122,3.2656609217325845,3.2882887522379556,0
0.662713858,true,0.000248251714496497,-0.000060601005257107945,0.6217524037495928,0.0,0.0,0.7288494956328319,3.3449184894561768,3.343953847885132,3.3442745208740234,6.645780563354492,6.643228054046631,6.645360946655273,52.898399353027344,82.74140930175781,59.40146255493164,3.3335437774658203,3.3289416631062823,3.35195255279541,0
0.673223499,true,0.00017508246952176092,0.000020018629275394343,0.6389558595775798,0.0,0.0,0.741415866247191,3.415325164794922,3.413870334625244,3.4147355556488037,6.629410266876221,6.6327409744262695,6.62998104095459,54.66464614868164,81.91092681884766,58.66792678833008,3.4064124425252276,3.399892171223958,3.4217529296875,0
0.682711684,true,0.0001835107685889769,0.0000179731530265004,0.6482637657125615,0.0,0.0,0.7539822368615502,3.4861674308776855,3.4848759174346924,3.485795736312866,6.636878967285156,6.638708114624023,6.635071277618408,53.80867004394531,80.84523010253906,58.66102600097656,3.4762128194173174,3.471610387166341,3.497306187947591,0
0.693648081,true,0.0002614392697711322,-0.000011037788497437544,0.6627004161014386,0.0,0.0,0.7665486074759094,3.5565741062164307,3.555718183517456,3.5557122230529785,6.650666236877441,6.649365425109863,6.650085926055908,53.2043571472168,82.18209075927734,58.1993293762207,3.547163645426432,3.5410273869832354,3.5663394927978516,0
0.704196481,true,0.00010413730647358136,1.3711827546713708e-6,0.6746696829082366,0.0,0.0,0.7791149780902685,3.6121156215667725,3.6116952896118164,3.6123428344726562,6.65924072265625,6.6611504554748535,6.658320903778076,52.71765899658203,81.2712631225586,59.905677795410156,3.6039244333902993,3.5977881749471026,3.622333208719889,0
0.712377552,true,0.0001990046230939537,-0.000024830116586870218,0.6851245040572657,0.0,0.0,0.7916813487046277,3.682467460632324,3.6813392639160156,3.682095766067505,6.662335395812988,6.667369842529297,6.6623759269714355,52.39854049682617,79.6832275390625,62.012001037597656,3.6737244923909502,3.6672048568725586,3.692133585611979,0
0.723016844,true,0.00014200921061486465,-0.00007021176249840073,0.6995339145450093,0.0,0.0,0.8042477193189869,3.745795249938965,3.744285821914673,3.7450966835021973,6.656073093414307,6.659507751464844,6.658148288726807,53.729217529296875,81.0660629272461,63.143646240234375,3.7377723058064776,3.7308689753214517,3.755414326985677,0
0.73183527,true,0.00009897787671921876,0.00007561836041991576,0.7102813981301588,0.0,0.0,0.816814089933346,3.802588939666748,3.801841974258423,3.8027071952819824,6.655013561248779,6.65528678894043,6.655647277832031,54.46134948730469,83.2060546875,63.91433334350586,3.7956835428873696,3.7868626912434893,3.812175114949544,0
0.74233619,true,0.00013729065580285222,0.00004645050590940102,0.7222710368932461,0.0,0.0,0.8293804605477052,3.866788387298584,3.8653879165649414,3.866198778152466,6.667429447174072,6.673192024230957,6.6703314781188965,53.98459243774414,81.09886169433594,63.52967071533203,3.8581972122192383,3.8501431147257485,3.876605987548828,0
0.751754783,true,0.0001891343645313854,-2.727747074749108e-6,0.7356935295066472,0.0,0.0,0.8419468311620644,3.9381203651428223,3.9372100830078125,3.9381299018859863,6.694611072540283,6.698363780975342,6.695536136627197,52.79604721069336,79.92852020263672,62.9086799621582,3.931449254353841,3.9222447077433267,3.948323885599772,0
0.762883216,true,0.00013389545988288007,0.00005927175993377704,0.7490887304200596,0.0,0.0,0.8545132017764235,4.009943008422852,4.009250164031982,4.009190082550049,6.723051071166992,6.723869323730469,6.72567892074585,52.052066802978516,81.39034271240234,61.75020980834961,4.00431760152181,3.99319585164388,4.0196584065755205,0
0.772712602,true,0.00004486256763291553,-0.0000569610063817434,0.7611805511376979,0.0,0.0,0.8670795723907827,4.088789939880371,4.087443828582764,4.088200092315674,6.7503838539123535,6.756434440612793,6.753434181213379,52.88808059692383,80.37908935546875,62.0016975402832,4.08217175801595,4.071433385213216,4.0967458089192705,0
0.782907616,true,0.00011668950615699654,0.000058498833554919046,0.7732553149900011,0.0,0.0,0.8796459430051419,4.1529340744018555,4.151860237121582,4.15261697769165,6.768738746643066,6.773967742919922,6.76965856552124,53.085086822509766,79.63771057128906,60.471126556396484,4.146219889322916,4.136248270670572,4.160793304443359,0
0.792535745,true,0.00017269543986185657,0.00003622237891505613,0.7852449683861242,0.0,0.0,0.892212313619501,4.2243757247924805,4.2236833572387695,4.223567962646484,6.773136138916016,6.775477886199951,6.775447368621826,52.990455627441406,80.47168731689453,59.64417266845703,4.219088236490885,4.2083498636881504,4.231360753377278,0
0.802450489,true,0.00007850971819156074,0.000012205342050105854,0.799977719304683,0.0,0.0,0.9047786842338602,4.273600101470947,4.273288726806641,4.2736639976501465,6.772837162017822,6.775434970855713,6.773159027099609,52.48634338378906,79.83245086669922,59.58334732055664,4.267411549886067,4.258206685384114,4.283135732014974,0
0.812360206,true,0.0000988092045089106,0.000058364812721123506,0.8119707674754412,0.0,0.0,0.9173450548482194,4.352065563201904,4.35120964050293,4.351802825927734,6.764101028442383,6.768762588500977,6.7642340660095215,53.06523132324219,79.32207489013672,60.373329162597656,4.346416473388672,4.337212244669596,4.360222816467285,0
0.822711036,true,0.00010035677377026315,-0.000057470059086315813,0.8239264815082025,0.0,0.0,0.9299114254625785,4.416319370269775,4.415027618408203,4.415783882141113,6.755603790283203,6.758459568023682,6.756628513336182,53.71039962768555,81.4132080078125,60.693809509277344,4.4100805918375645,4.400876045227051,4.424654006958008,0
0.832755249,true,0.00008624748513161697,-0.000036258694282305445,0.8387169853588504,0.0,0.0,0.9424777960769377,4.487651348114014,4.487176895141602,4.487388610839844,6.752422332763672,6.75189208984375,6.750596046447754,53.6413688659668,82.46415710449219,59.66814422607422,4.482182184855143,4.472593943277994,4.497522989908854,0
0.842475752,true,0.0001791334003628424,0.00004559293799655308,0.8505842048818483,0.0,0.0,0.9550441666912969,4.551197052001953,4.550395488739014,4.550879955291748,6.747297286987305,6.751046657562256,6.747860908508301,53.71082305908203,80.86443328857422,58.70993423461914,4.545845985412598,4.537024815877278,4.55888557434082,0
0.853406059,true,0.00010272028925868511,-0.00005330089068458587,0.8651433316427509,0.0,0.0,0.967610537305656,4.621168613433838,4.620748519897461,4.621504306793213,6.736152648925781,6.736867427825928,6.736011028289795,52.61967086791992,80.788330078125,58.82114791870117,4.616029739379883,4.606442133585611,4.63021977742513,0
0.861751426,true,0.00008938399306157963,0.00003235358970257125,0.8743423209036029,0.0,0.0,0.9801769079200152,4.67747163772583,4.677051544189453,4.676773548126221,6.718844413757324,6.716519355773926,6.7190632820129395,51.5734748840332,81.89393615722656,58.59110641479492,4.673174540201822,4.66166877746582,4.685830116271973,0
0.872294889,true,0.000036507377556345354,-0.00005654755348908794,0.8873836408446452,0.0,0.0,0.9927432785343744,4.740037441253662,4.739617347717285,4.739829063415527,6.689899921417236,6.691439628601074,6.690067768096924,50.91056823730469,80.59241485595703,59.27827072143555,4.735304514567057,4.724949518839518,4.7491105397542315,0
0.881986941,true,0.00010366835309103824,0.00004058009739578516,0.899284837526692,0.0,0.0,1.0053096491487337,4.803473949432373,4.802672386169434,4.803537845611572,6.663078308105469,6.665874004364014,6.662855625152588,51.056358337402344,81.23129272460938,61.01171875,4.799351692199707,4.788229942321777,4.811240514119466,0
0.892726647,true,0.0001759651922315482,0.0000566016099988417,0.9125678191454896,0.0,0.0,1.017876019763093,4.88183069229126,4.88092041015625,4.88156795501709,6.653927326202393,6.653652667999268,6.655808448791504,52.60606384277344,83.8390121459961,60.623512268066406,4.880274454752604,4.866084098815918,4.891396204630533,0
0.902292501,true,0.00006336732610956262,0.00003163893483452,0.924669711779462,0.0,0.0,1.0304423903774522,4.945539474487305,4.945391654968262,4.945603370666504,6.66913366317749,6.669240474700928,6.669740200042725,52.87983703613281,84.31642150878906,61.18596649169922,4.943938255310059,4.930898666381836,4.956211090087891,0
0.911438819,true,0.00004394100003726822,0.0001162629203235898,0.9379934344972776,0.0,0.0,1.0430087609918115,5.010174751281738,5.009699821472168,5.009366989135742,6.689222812652588,6.692767143249512,6.690249919891357,51.969642639160156,81.69300842285156,62.28318405151367,5.007986068725586,4.993796030680338,5.01872444152832,0
0.922031125,true,0.00008885041958373788,-0.0000834026288140591,0.9500172771311598,0.0,0.0,1.0555751316061708,5.074319362640381,5.073681354522705,5.074219703674316,6.711555480957031,6.714073657989502,6.711938381195068,52.70197296142578,82.3935775756836,62.302120208740234,5.070499420166016,5.058226903279622,5.082005182902018,0
0.931431861,true,0.00006609250787012518,0.000025565449885873248,0.962786226619842,0.0,0.0,1.06814150222053,5.149190902709961,5.148770332336426,5.149091720581055,6.7386064529418945,6.739360809326172,6.7395830154418945,55.31373596191406,86.79997253417969,60.81766128540039,5.145668983459473,5.133396784464518,5.1575578053792315,0
0.942244029,true,0.000110814539348964,0.00006375693139861965,0.9747214281995326,0.0,0.0,1.0807078728348893,5.228200912475586,5.227672100067139,5.227447986602783,6.751659870147705,6.757310390472412,6.754328727722168,57.532020568847656,86.94882202148438,61.99959945678711,5.224290211995442,5.211250940958658,5.235028584798177,0
0.953120401,true,0.00009161214163887824,-6.639672954377934e-6,0.9895767274560908,0.0,0.0,1.0932742434492486,5.299424171447754,5.298677444458008,5.299161434173584,6.765019416809082,6.768396377563477,6.767233371734619,56.36963653564453,85.2191162109375,62.1910400390625,5.29332415262858,5.281434377034505,5.304829279581705,0
0.96205582,true,3.3156278895278056e-6,0.00011222515311776936,1.0015868542718147,0.0,0.0,1.105840614063608,5.355891227722168,5.355525493621826,5.355628490447998,6.770454406738281,6.769958019256592,6.771345615386963,55.13076400756836,85.04464721679688,60.53150939941406,5.348934173583984,5.3374284108479815,5.3619740804036455,0
0.972555631,true,0.000020694530368105447,-0.000026434092208708186,1.013375699793628,0.0,0.0,1.1184069846779672,5.432995796203613,5.431976318359375,5.43256950378418,6.753067970275879,6.757528305053711,6.755126476287842,53.42178726196289,80.93871307373047,59.042274475097656,5.423720041910807,5.412981669108072,5.437910079956055,0
0.983492915,true,0.00011594811225021057,0.000037134484227146885,1.0292076446940412,0.0,0.0,1.1309733552923265,5.496214389801025,5.495630741119385,5.496169090270996,6.726996898651123,6.729449272155762,6.726813793182373,52.880828857421875,80.24234771728516,59.868282318115234,5.485850016276041,5.4762624104817705,5.501574198404947,0
0.993981335,true,0.00008740239554413626,0.00003860956382065355,1.0410611910636745,0.0,0.0,1.1435397259066857,5.566839218139648,5.566527843475342,5.5660858154296875,6.697707176208496,6.697000980377197,6.698845386505127,51.92708206176758,81.96991729736328,60.37395095825195,5.556417465209961,5.5468298594156895,5.570990880330403,0
1.003803525,true,7.735905298314191e-6,-0.00003377576004091551,1.0527650119180547,0.0,0.0,1.156106096521045,5.635883808135986,5.635354518890381,5.635512351989746,6.670797348022461,6.674079895019531,6.671814918518066,51.644588470458984,81.14864349365234,59.742218017578125,5.6239166259765625,5.6162465413411455,5.638490676879883,0
1.013578029,true,0.00003410694735500271,0.00009654475688501175,1.0631585104689547,0.0,0.0,1.1686724671354043,5.711627006530762,5.710934638977051,5.711364269256592,6.638674259185791,6.641990661621094,6.638260364532471,52.08318328857422,80.67949676513672,60.331390380859375,5.698319753011067,5.691032409667969,5.714810689290364,0
1.023953237,true,0.00006956240636725786,-0.00004000305636757033,1.0760059370602952,0.0,0.0,1.1812388377497636,5.759762763977051,5.7586894035339355,5.75928258895874,6.601025581359863,6.6032280921936035,6.6026811599731445,53.07628631591797,82.3475341796875,60.05276870727539,5.7458756764729815,5.73858896891276,5.761983235677083,0
1.033975471,true,0.00006522359758329942,-0.00003104224342282361,1.0902349660983313,0.0,0.0,1.1938052083641228,5.835124492645264,5.835139751434326,5.835242748260498,6.562191009521484,6.562602519989014,6.561800956726074,52.75156021118164,83.61029052734375,60.12095260620117,5.820278167724609,5.814142227172852,5.839454015096028,0
1.043850324,true,0.0001111321429235977,0.00007773712910499416,1.1019217626768105,0.0,0.0,1.2063715789784821,5.8987250328063965,5.898359298706055,5.898026466369629,6.54147481918335,6.544752597808838,6.542855739593506,54.24485397338867,83.7649917602539,61.46450424194336,5.883175532023111,5.8781897226969395,5.900817235310872,0
1.0540861,true,0.000056479770745851025,-0.00003005755577535461,1.1150787183189883,0.0,0.0,1.2189379495928414,5.968478202819824,5.968003273010254,5.968324184417725,6.54625940322876,6.548744201660156,6.549041748046875,55.51826477050781,85.21009063720703,62.17564010620117,5.954126358032227,5.948373794555664,5.9706179300944004,0
1.06278245,true,0.00007177461420652274,0.0000204410339961899,1.1243628256138143,0.0,0.0,1.2315043202072007,6.032078266143799,6.031820774078369,6.0323052406311035,6.569417476654053,6.571106433868408,6.571761608123779,57.74956130981445,86.90923309326172,60.86772537231445,6.017407099405924,6.012804667154947,6.03543217976888,0
1.073725742,true,4.672509591319094e-6,0.00003161864001237914,1.1401913761353877,0.0,0.0,1.24407069082156,6.102212429046631,6.101574420928955,6.101949691772461,6.6020097732543945,6.60860013961792,6.605767250061035,57.719482421875,83.04579162597656,59.86741638183594,6.087207158406575,6.082988739013672,6.104465484619141,0
1.083619131,true,0.00009702569896005532,7.703359198632398e-7,1.153447121344482,0.0,0.0,1.2566370614359192,6.159006118774414,6.158531665802002,6.158906936645508,6.625512599945068,6.631289005279541,6.627320766448975,58.43564987182617,81.27510833740234,60.915504455566406,6.144734700520833,6.140132904052734,6.1619936625162754,0
1.093850216,true,0.00006907190900613771,0.000039265985451562994,1.1626698659210764,0.0,0.0,1.2692034320502785,6.222115993499756,6.222294807434082,6.222288608551025,6.647758960723877,6.651862621307373,6.651678562164307,58.22991943359375,80.28453826904297,60.8731803894043,6.208782831827799,6.204180399576822,6.226041158040364,0
1.104290042,true,-0.000060302465545723506,-0.00005832912173697871,1.1772188228663416,0.0,0.0,1.2817698026646378,6.29932975769043,6.299834728240967,6.299556732177734,6.664862632751465,6.6777777671813965,6.670579433441162,60.28106689453125,74.71627807617188,60.10942077636719,0.003068148779372374,6.282801310221354,0.018408892055352528,0
1.113530828,true,-0.00009776997751491246,0.00004193518131829475,1.1891370436187656,0.0,0.0,1.294336173278997,6.355905055999756,6.356192588806152,6.35591459274292,6.669865608215332,6.685227870941162,6.674502372741699,62.380245208740234,71.20140838623047,60.77666091918945,0.05944538613160451,0.05599371592203776,0.07555316388607025,0
1.122909683,true,-0.000030262770899467223,-0.00003083451102683628,1.2022668714626021,0.0,0.0,1.3069025438933564,6.411936283111572,6.412224292755127,6.412109375,6.672366142272949,6.685318470001221,6.6761298179626465,64.70623779296875,69.11483764648438,60.95377731323242,0.11889077226320902,0.11390503247578938,0.13193039099375406,0
1.132063467,true,-0.00011575806957724315,-0.000029009671307621975,1.2128441615001693,0.0,0.0,1.3194689145077156,6.482125759124756,6.483011722564697,6.4827880859375,6.670238494873047,6.679917335510254,6.671876907348633,67.18106842041016,68.4690170288086,61.97935104370117,0.1886911590894063,0.18523947397867838,0.2028813362121582,0
1.142594384,true,-0.00007824298520854315,1.0433633032743375e-6,1.2247589230945164,0.0,0.0,1.332035285122075,6.560481548309326,6.56120491027832,6.560654640197754,6.667520046234131,6.682130813598633,6.671514511108398,71.32477569580078,64.48530578613281,63.215396881103516,0.2680795192718506,0.2638607819875081,0.2815026640892029,0
1.1535637699999999,true,-0.00005337273014640001,-0.00010275597132003467,1.2395767840144818,0.0,0.0,1.3446016557364342,6.624735355377197,6.625730991363525,6.625725269317627,6.681894779205322,6.693905830383301,6.686640739440918,74.07366180419922,64.61895751953125,64.53288269042969,0.33136006196339923,0.3302095333735148,0.34593379497528076,0
1.162864852,true,-0.00009856766380228447,-0.00008792342712126455,1.2504297749579505,0.0,0.0,1.3571680263507935,6.697102069854736,6.698152542114258,6.697819709777832,6.71627140045166,6.72469425201416,6.721978664398193,74.63018035888672,64.0372543334961,64.2641830444336,0.40537917613983154,0.40307803948720294,0.4191858371098836,0
1.173839873,true,-0.00012118044591280329,-0.00011132801581697859,1.2651522986192218,0.0,0.0,1.3697343969651528,6.761192798614502,6.761752605438232,6.761474609375,6.747089385986328,6.760040283203125,6.755742073059082,76.27340698242188,59.99289321899414,61.515525817871094,0.46981028715769446,0.46827618281046546,0.482849915822347,0
1.183676004,true,-0.00003544728346205819,-0.0001431578737332834,1.2784794841669327,0.0,0.0,1.382300767579512,6.832089424133301,6.832921504974365,6.832697868347168,6.765914440155029,6.775563716888428,6.7723612785339355,77.86223602294922,58.34418487548828,59.92966079711914,0.541528304417928,0.5392271677652994,0.5538009007771809,0
1.193329063,true,-0.00006623443993905321,-0.00010988617378918038,1.2916840576498676,0.0,0.0,1.3948671381938713,6.9029316902160645,6.904090404510498,6.9029412269592285,6.7609686851501465,6.764728546142578,6.7671356201171875,78.19168090820312,58.560455322265625,58.665645599365234,0.6132462819417317,0.609411080678304,0.6236012776692708,0
1.202868566,true,-0.00012868544636669883,-0.0001270382881393486,1.3009681619920288,0.0,0.0,1.4074335088082306,6.965605735778809,6.967146396636963,6.966704368591309,6.74190616607666,6.747091770172119,6.746481895446777,78.41545867919922,58.22206497192383,59.33882141113281,0.6761433283487955,0.6730751196543375,0.6891829172770182,0
1.214545977,true,-0.00015734093452396587,-0.00005314842916421271,1.315540965190102,0.0,0.0,1.4199998794225899,7.044071674346924,7.044849395751953,7.044788837432861,6.715353965759277,6.719703197479248,6.717867374420166,81.12054443359375,58.93290710449219,60.16770553588867,0.7551480929056803,0.7516964276631672,0.7651196320851643,0
1.223308588,true,-0.00004900629440725123,-0.00019273103576168663,1.326155747221911,0.0,0.0,1.4325662500369492,7.100974082946777,7.101316452026367,7.101364612579346,6.7062811851501465,6.707411766052246,6.709500312805176,81.93675231933594,61.671783447265625,60.02054977416992,0.811141808827718,0.8088407516479492,0.8234144846598307,0
1.232601351,true,-0.00015578098331339615,-0.00009050325386077295,1.3382202614381118,0.0,0.0,1.4451326206513084,7.165173530578613,7.1664958000183105,7.165836334228516,6.709519386291504,6.7086992263793945,6.709638595581055,80.77188873291016,62.07218933105469,59.51457214355469,0.8759564558664957,0.8744223912556965,0.8847773869832356,0
1.243950834,true,-0.00006411704330093304,-0.00009837967272433738,1.3543722001962408,0.0,0.0,1.4576989912656677,7.237540245056152,7.2385358810424805,7.237604141235352,6.723710536956787,6.72614860534668,6.7241597175598145,81.18617248535156,59.84091567993164,59.92431640625,0.946523904800415,0.9472909768422444,0.956495443979899,0
1.253312183,true,-0.000058497958536161996,-0.0001575367407237109,1.366389061373578,0.0,0.0,1.470265361880027,7.301031589508057,7.302081108093262,7.301966190338135,6.745962619781494,6.745858669281006,6.745449542999268,81.03327941894531,59.68256378173828,60.62934494018555,1.0094210306803384,1.0105714797973633,1.0213100910186768,0
1.2630518,true,-0.00015377411516808025,-0.00006272516808644736,1.3770855020928103,0.0,0.0,1.4828317324943863,7.371873378753662,7.373086452484131,7.372862815856934,6.758047103881836,6.754929542541504,6.756545066833496,79.77320098876953,60.00236892700195,60.36563491821289,1.0799883206685383,1.083823521931966,1.0899598598480225,0
1.273680618,true,-0.00009694778058346166,-0.00020815148421056464,1.3889526921948823,0.0,0.0,1.4953981031087455,7.435582160949707,7.436032772064209,7.435809135437012,6.752389430999756,6.753425121307373,6.7526984214782715,79.80741882324219,58.22829055786133,59.41460418701172,1.1574591000874836,1.1609108448028564,1.1693482398986816,0
1.28409375,true,-2.9863553187031875e-6,-0.00015848765341118826,1.4035559890291756,0.0,0.0,1.5079644737231048,7.512904644012451,7.513900279998779,7.513894557952881,6.740065574645996,6.739542007446289,6.738203048706055,78.81769561767578,56.7198486328125,59.29365921020508,1.221123218536377,1.224191427230835,1.2330123583475747,0
1.293285891,true,-0.00010569379780628339,-0.00009491945391581588,1.4180301675700984,0.0,0.0,1.520530844337464,7.569643974304199,7.570639610290527,7.56959867477417,6.720191955566406,6.716141700744629,6.7197489738464355,78.83362579345703,59.11333465576172,58.07006072998047,1.2775004704793294,1.2821027437845864,1.2878554662068684,0
1.302802348,true,-0.00009548366880845025,-0.00014448414238744388,1.4272019794150652,0.0,0.0,1.5330972149518234,7.631719589233398,7.633095741271973,7.632817268371582,6.697146415710449,6.69560432434082,6.695478439331055,78.19184875488281,58.70854949951172,58.23764419555664,1.3396304448445637,1.3442327181498208,1.3530537287394204,0
1.313406012,true,-0.00010622510905984947,-0.00005446217943643853,1.4416759879271288,0.0,0.0,1.5456635855661827,7.702561378479004,7.7031755447387695,7.703278541564941,6.672365665435791,6.670170307159424,6.669347286224365,79.16433715820312,60.09972381591797,59.88414001464844,1.410197893778483,1.4148001670837402,1.4224704106648762,0
1.323088836,true,-0.000041063810086519874,-0.00006323650866307702,1.4536826597581618,0.0,0.0,1.558229956180542,7.76686954498291,7.767156600952148,7.767096519470215,6.6663899421691895,6.659549713134766,6.663879871368408,79.45244598388672,62.27851867675781,60.26165771484375,1.4738620122273762,1.4776970545450845,1.4872851371765137,0
1.3329734819999999,true,-0.00007866595833943206,-0.00011630841014557568,1.464362080290845,0.0,0.0,1.5707963267949012,7.830904960632324,7.831845760345459,7.831404209136963,6.678077220916748,6.671438217163086,6.674686908721924,79.50081634521484,62.59534454345703,59.895263671875,1.537909666697184,1.5432788530985513,1.5490315755208333,0
1.343784888,true,-0.0000562707822761849,-0.00007229794564500375,1.4804901758356541,0.0,0.0,1.5833626974092605,7.917211532592773,7.924795627593994,7.924844264984131,6.709255695343018,6.706944465637207,6.706913948059082,78.5357894897461,60.75956726074219,62.23643112182617,1.6311046282450357,1.635706901550293,1.644911289215088,0
1.354465585,true,-0.000013474632420622529,-0.00016080907558127665,1.4925376762050824,0.0,0.0,1.5959290680236198,7.9883809089660645,7.988559246063232,7.988607406616211,6.737027168273926,6.734141826629639,6.736711502075195,78.64466094970703,60.52250289916992,60.269874572753906,1.6947685877482095,1.6997543970743814,1.708575407663981,0
1.363999221,true,-0.0000964177683808188,-0.00009436190316872321,1.5058375551507774,0.0,0.0,1.608495438637979,8.051816940307617,8.052703857421875,8.052152633666992,6.753044605255127,6.750077247619629,6.751470565795898,77.87899780273438,59.76338195800781,58.75772476196289,1.7588164011637368,1.7638020515441895,1.7726229031880696,0
1.373927379,true,-0.00007663730907258898,-0.00004965110117081323,1.5175958256768578,0.0,0.0,1.6210618092523383,8.114274978637695,8.114834785461426,8.114773750305176,6.742240905761719,6.744990825653076,6.743086338043213,78.23217010498047,56.288753509521484,58.3558235168457,1.8201793034871419,1.825548489888509,1.8339859644571939,0
1.383762522,true,0.00001925157497523803,-0.00010154479521701375,1.529350698971772,0.0,0.0,1.6336281798666976,8.176839828491211,8.177453994750977,8.177393913269043,6.713790416717529,6.713771820068359,6.712086200714111,78.120361328125,55.596500396728516,59.38486862182617,1.8888290723164876,1.89228089650472,1.9041698773701985,0
1.39383341,true,0.00003094127532073404,-0.000021724257050485898,1.5424124601863936,0.0,0.0,1.646194550481057,8.24740982055664,8.247533798217773,8.247037887573242,6.6754069328308105,6.6678643226623535,6.671531677246094,76.70173645019531,58.94047164916992,60.5135383605957,1.9532602628072102,1.9540273348490396,1.9662998517354329,0
1.4039241279999999,true,-2.323757379651376e-6,-0.00009579696384480222,1.5554742215951793,0.0,0.0,1.6587609210954162,8.316890716552734,8.316741943359375,8.316573143005371,6.6481499671936035,6.634800910949707,6.640296936035156,72.95519256591797,63.124637603759766,61.314151763916016,2.020375887552897,2.0238278706868487,2.0368674596150713,0
1.414050844,true,-0.00006586229086906629,-0.000020688246890336367,1.567263006482686,0.0,0.0,1.6713272917097755,8.37934684753418,8.379526138305664,8.379955291748047,6.628784656524658,6.61400032043457,6.619082450866699,71.34859466552734,66.46392059326172,61.581153869628906,2.0817389488220215,2.0840401649475098,2.099380811055501,0
1.42394728,true,0.00001491975596135675,0.0000447728039755032,1.5803247686860749,0.0,0.0,1.6838936623241347,8.449427604675293,8.449442863464355,8.449600219726562,6.612632751464844,6.600671768188477,6.607812404632568,72.56940460205078,67.8768310546875,60.990386962890625,2.1515393257141113,2.1546074549357095,2.169564723968506,0
1.434127682,true,0.000032589632573239804,-0.000048370241178584224,1.5922464140190769,0.0,0.0,1.696460032938494,8.512592315673828,8.512934684753418,8.512982368469238,6.612951278686523,6.604422092437744,6.608486652374268,72.53848266601562,67.72359466552734,61.19246292114258,2.2152036031087237,2.2163540522257485,2.232078234354655,0
1.443175226,true,0.00002860418715327943,0.00009251344208749991,1.6027214513898242,0.0,0.0,1.7090264035528533,8.576627731323242,8.5764799118042,8.575984001159668,6.622712135314941,6.614808082580566,6.618068218231201,70.61495208740234,66.91446685791016,61.29533004760742,2.2757994333902993,2.2792510986328125,2.2953589757283526,0
1.453649561,true,0.00007068453960270603,0.000033997334212707314,1.6172127711678894,0.0,0.0,1.7215927741672126,8.646870613098145,8.646014213562012,8.646281242370605,6.639122486114502,6.625669956207275,6.632288455963135,66.69905090332031,70.7103271484375,62.30403137207031,2.3463668823242188,2.347900867462158,2.3643922805786133,0
1.463709996,true,-0.00007212625623429984,0.00010631550087449492,1.6292432584956393,0.0,0.0,1.7341591447815718,8.7035551071167,8.703025817871094,8.703347206115723,6.653715133666992,6.633795261383057,6.643592834472656,62.46091842651367,75.7953872680664,62.633575439453125,2.403894742329915,2.403127670288086,2.421536445617676,0
1.473619508,true,0.00005683725846021787,-0.000012435230606331115,1.6398103836732307,0.0,0.0,1.7467255153959311,8.767481803894043,8.766244888305664,8.766783714294434,6.671920299530029,6.655466079711914,6.663609504699707,59.36399459838867,79.12251281738281,61.22868347167969,2.4652576446533203,2.467942237854004,2.4848170280456543,0
1.48316018,true,0.00011860897944970741,0.00012972000416044456,1.65317832654362,0.0,0.0,1.7592918860102904,8.83189868927002,8.830607414245605,8.831363677978516,6.69325590133667,6.675005912780762,6.683122158050537,56.30531692504883,83.04806518554688,60.978050231933594,2.530455907185872,2.532756805419922,2.5511658986409502,0
1.4932635969999999,true,0.00008353575494427107,0.0001377719462874429,1.6677511872922837,0.0,0.0,1.7718582566246497,8.909711837768555,8.909019470214844,8.908740997314453,6.714990615844727,6.69729471206665,6.706887722015381,52.982032775878906,86.49385070800781,59.12153625488281,2.6094605127970376,2.609076976776123,2.629786968231201,0
1.50298817,true,0.00003491211228116628,0.00012409539629109842,1.6770997621807648,0.0,0.0,1.784424627239009,8.972875595092773,8.97251033782959,8.972885131835938,6.721579551696777,6.710847854614258,6.714812278747559,51.000572204589844,85.61658477783203,59.768775939941406,2.6727412541707354,2.6712071100870767,2.691917101542155,0
1.513839691,true,5.807555110589506e-6,0.0001449451538821778,1.6930407877524984,0.0,0.0,1.7969909978533682,9.044154167175293,9.043025970458984,9.044108390808105,6.722856521606445,6.717371463775635,6.717397689819336,51.50389099121094,85.20796966552734,59.82106399536133,2.74369208017985,2.741774559020996,2.7644020716349282,0
1.5235740629999999,true,0.00005601009026986837,0.00018496599934582773,1.7051154323274311,0.0,0.0,1.8095573684677275,9.115921020507812,9.114574432373047,9.115331649780273,6.727893352508545,6.722269058227539,6.725764274597168,52.23027420043945,88.18168640136719,60.63368225097656,2.815409978230794,2.8142595291137695,2.835736592610677,0
1.534104212,true,0.00004699413401938311,0.00011862676715904548,1.718497094704838,0.0,0.0,1.8221237390820868,9.179522514343262,9.179046630859375,9.179422378540039,6.739445686340332,6.735493183135986,6.736746788024902,50.73228454589844,86.25447845458984,59.739524841308594,2.880224863688151,2.8798411687215166,2.9001677831013994,0
1.543246754,true,0.00006634476739126436,0.0001979541441144618,1.7277641826765797,0.0,0.0,1.834690109696446,9.244211196899414,9.243191719055176,9.243240356445312,6.742990493774414,6.743893623352051,6.743718147277832,51.27638626098633,85.10618591308594,59.26249694824219,2.9465735753377276,2.9481074015299478,2.9642152786254883,0
1.552883917,true,0.00009357925012106449,0.00017049937106310766,1.7397742787697132,0.0,0.0,1.8472564803108054,9.307103157043457,9.306356430053711,9.307112693786621,6.74399995803833,6.7430925369262695,6.744616985321045,50.26631164550781,85.36079406738281,59.20942687988281,3.009087244669596,3.0094706217447915,3.030563990275065,0
1.564037893,true,-0.00005612438421217034,0.00016363910266283373,1.754411761583912,0.0,0.0,1.8598228509251646,9.392918586730957,9.39206314086914,9.392383575439453,6.736036777496338,6.733771800994873,6.7347331047058105,51.74559783935547,87.6029052734375,58.44498062133789,3.095378557840983,3.095378557840983,3.1164722442626953,0
1.5736230660000001,true,9.178793450120088e-6,0.00015726144525446363,1.7677797071865942,0.0,0.0,1.872389221539524,9.443015098571777,9.441506385803223,9.442099571228027,6.732879638671875,6.735071659088135,6.7329535484313965,52.47431182861328,86.25902557373047,59.6939697265625,3.1460030873616533,3.145619710286458,3.166329701741536,0
1.58354909,true,0.0000862897484908325,0.0001742752002874621,1.7811544462356776,0.0,0.0,1.8849555921538832,9.5138578414917,9.512893676757812,9.513649940490723,6.739529132843018,6.739413738250732,6.736358165740967,52.36551284790039,84.83353424072266,59.43578338623047,3.2177209854125977,3.2177209854125977,3.2388146718343096,0
1.5935164080000002,true,0.0000659397141529423,0.00014719443279579322,1.7930557679285504,0.0,0.0,1.8975219627682425,9.5780029296875,9.577200889587402,9.576977729797363,6.739797115325928,6.738282680511475,6.739232063293457,52.466163635253906,85.77883911132812,58.12000274658203,3.283686319986979,3.2813851038614907,3.304396311442057,0
1.603360224,true,0.000025325243685688665,0.00010009863117777144,1.8036705838879612,0.0,0.0,1.9100883333826018,9.64808177947998,9.64733600616455,9.647546768188477,6.731410503387451,6.734299182891846,6.731517791748047,52.011810302734375,84.19110870361328,58.39577865600586,3.355404535929362,3.3511854807535806,3.3738129933675127,0
1.612946711,true,-0.000032526957774443936,0.00012471494899955738,1.8181615492120606,0.0,0.0,1.922654703996961,9.71119213104248,9.710173606872559,9.711092948913574,6.7161993980407715,6.719383716583252,6.715765953063965,53.56496047973633,84.51683044433594,58.941410064697266,3.4190683364868164,3.4167674382527666,3.4374774297078448,0
1.623850178,true,0.000039684511183368484,0.00016354348243654648,1.8300116625759637,0.0,0.0,1.9352210746113203,9.774738311767578,9.773174285888672,9.774040222167969,6.697021007537842,6.698344707489014,6.698522090911865,54.600318908691406,86.77307891845703,59.10197830200195,3.4861841201782227,3.4796644846598306,3.5030587514241533,0
1.633760014,true,0.000012026786961953454,0.00010324632156784602,1.8446388834466276,0.0,0.0,1.9477874452256796,9.845253944396973,9.844779968261719,9.844990730285645,6.6831464767456055,6.682663917541504,6.683502197265625,54.28469467163086,89.13912200927734,59.19500732421875,3.5556008021036782,3.5509986877441406,3.574009895324707,0
1.643307361,true,0.00003156450312324994,0.00014863966999325068,1.8565264916802835,0.0,0.0,1.9603538158400389,9.91636848449707,9.915567398071289,9.915397644042969,6.676698684692383,6.680606842041016,6.678764820098877,53.68367385864258,86.18946838378906,60.43388366699219,3.6277023951212564,3.621949513753255,3.643810272216797,0
1.653046909,true,0.0000762335511488674,0.00008001083955640816,1.8683767288229476,0.0,0.0,1.9729201864543982,9.979151725769043,9.978404998779297,9.97905158996582,6.677708625793457,6.67928409576416,6.678617000579834,54.173484802246094,86.70760345458984,59.78196334838867,3.6917502085367837,3.685230255126953,3.7090085347493487,0
1.663082263,true,-0.00007381327783589651,0.00012174701402992349,1.8790357753861364,0.0,0.0,1.9854865570687574,10.042860984802246,10.042167663574219,10.042543411254883,6.676721096038818,6.676158905029297,6.676546573638916,52.94942092895508,86.52186584472656,59.26436233520508,3.753880182902018,3.748894373575846,3.770754814147949,0
1.6728331189999999,true,0.00006736167569436982,4.652896484332074e-7,1.8909028768382452,0.0,0.0,1.9980529276831167,10.106623649597168,10.105549812316895,10.106034278869629,6.676417350769043,6.681098937988281,6.6775221824646,53.30612564086914,85.13812255859375,58.4322509765625,3.8171606063842773,3.8129418690999346,3.8355696996053057,0
1.683520939,true,0.000030114250566224883,0.00015713114495397723,1.907092032450801,0.0,0.0,2.0106192982974758,10.18563461303711,10.184887886047363,10.185480117797852,6.691956043243408,6.695166110992432,6.691547393798828,53.593589782714844,85.54227447509766,59.74915313720703,3.8965489069620767,3.8907960255940752,3.915341377258301,0
1.693371973,true,0.000055752995616220006,0.0002020456202049664,1.916491860479697,0.0,0.0,2.023185668911835,10.236275672912598,10.2354736328125,10.2359037399292,6.7128071784973145,6.713339328765869,6.713959217071533,53.70356369018555,87.01869201660156,59.18454360961914,3.9475568135579424,3.941037178039551,3.9648154576619463,0
1.701510335,true,-0.000023040879000536284,0.0000591764096431045,1.928648293700052,0.0,0.0,2.0357520395261943,10.30003833770752,10.299999237060547,10.30015754699707,6.744789123535156,6.746676445007324,6.7450385093688965,53.445499420166016,85.97230529785156,58.1489372253418,4.011220932006836,4.005851745605469,4.0292463302612305,0
1.713442051,true,-0.00007120462939423911,0.00009047080405074682,1.9432858856938582,0.0,0.0,2.0483184101405536,10.378612518310547,10.3778657913208,10.378512382507324,6.7627997398376465,6.768272876739502,6.764160633087158,54.342994689941406,83.767333984375,59.54365158081055,4.088691711425781,4.082555770874023,4.105950355529785,0
1.723017285,true,-2.1458458390390192e-6,0.00015364162790946516,1.956667423412966,0.0,0.0,2.060884780754913,10.450271606445312,10.449197769165039,10.449845314025879,6.765597820281982,6.7683892250061035,6.768313407897949,55.137630462646484,84.1447982788086,58.56551742553711,4.160793304443359,4.153506278991699,4.178435325622559,0
1.733193906,true,-1.4321467851999985e-6,0.00006332859209143952,1.9701239467120535,0.0,0.0,2.073451151369272,10.52116870880127,10.521183967590332,10.521286964416504,6.768730640411377,6.771001815795898,6.769783973693848,54.402435302734375,83.07061767578125,58.397865295410156,4.230210304260254,4.2263749440511065,4.249386469523111,0
1.7429943589999999,true,0.000011068180667271892,0.00009441297019889087,1.982011615707522,0.0,0.0,2.0860175219836314,10.58542251586914,10.58494758605957,10.584613800048828,6.7625813484191895,6.767475605010986,6.764242172241211,53.410945892333984,80.13046264648438,58.70005798339844,4.293874104817708,4.2881215413411455,4.310365676879883,0
1.754233173,true,0.0000833154138404969,0.00003026328460899645,1.9951753603725848,0.0,0.0,2.0985838925979907,10.669550895690918,10.668421745300293,10.669015884399414,6.738755226135254,6.739473819732666,6.740834712982178,53.775630950927734,82.42453002929688,58.16685485839844,4.377481460571289,4.372112274169922,4.398191452026367,0
1.7633197059999999,true,-0.00007569992336613134,0.000044994545996466555,2.0071242468698363,0.0,0.0,2.11115026321235,10.718775749206543,10.718463897705078,10.718838691711426,6.721587657928467,6.720652103424072,6.721700668334961,52.70777130126953,82.89576721191406,58.19321823120117,4.42503801981608,4.422736485799153,4.4480485916137695,0
1.773764637,true,-0.000040349069393245425,0.00008227917469034983,2.018943728676311,0.0,0.0,2.1237166338267093,10.796260833740234,10.795731544494629,10.7958345413208,6.693999767303467,6.697974681854248,6.695455074310303,53.108360290527344,82.1124038696289,58.0139045715332,4.504426002502441,4.4994401931762695,4.523985544840494,0
1.783982491,true,0.00007178330076212048,0.00009068599550520631,2.0308687654373068,0.0,0.0,2.1362830044410686,10.845704078674316,10.84506607055664,10.845440864562988,6.682468414306641,6.684933662414551,6.681513786315918,52.66965103149414,82.36029815673828,58.27357864379883,4.552748998006185,4.549297968546549,4.573843002319336,0
1.793921135,true,-0.00004348851251023287,0.00006472424409919214,2.0454993262059165,0.0,0.0,2.148849375055428,10.930648803710938,10.930336952209473,10.930275917053223,6.67568302154541,6.675020694732666,6.675678253173828,51.82642364501953,85.04940795898438,59.73507308959961,4.637890497843424,4.634438832600911,4.658600489298502,0
1.803664821,true,0.000046399286819466405,-0.00002014314534398345,2.0586427454853125,0.0,0.0,2.161415745669787,10.986734390258789,10.986422538757324,10.98636245727539,6.67791748046875,6.680414199829102,6.6792216300964355,50.873836517333984,83.95686340332031,59.824302673339844,4.6938845316569004,4.689665476481119,4.715361277262369,0
1.8137120119999999,true,-7.693362605108263e-6,0.00006272218153310731,2.0705166461496165,0.0,0.0,2.1739821162841464,11.057086944580078,11.056556701660156,11.057095527648926,6.676201820373535,6.679116725921631,6.6764421463012695,53.05091094970703,84.59077453613281,60.02158737182617,4.767519950866699,4.759849548339844,4.784777959187825,0
1.823646535,true,-0.000045067920707241114,0.00012814663856163894,2.082397404220274,0.0,0.0,2.1865484868985057,11.120577812194824,11.119775772094727,11.120041847229004,6.672419548034668,6.673991680145264,6.673698425292969,53.99074172973633,84.95761108398438,61.02693557739258,4.828116099039713,4.821979522705078,4.849209467569986,0
1.833604274,true,-0.00004178071073533067,0.000021996852360843914,2.0916747455423783,0.0,0.0,2.199114857512865,11.190495491027832,11.19078254699707,11.19061279296875,6.67099666595459,6.674162864685059,6.670065402984619,54.3642692565918,83.00101470947266,63.212223052978516,4.900217056274414,4.893313725789388,4.917859077453613,0
1.8438991329999999,true,-0.00005663976003190422,0.00004572546975833748,2.107530654771635,0.0,0.0,2.2116812281272242,11.254857063293457,11.254653930664062,11.253886222839355,6.667840957641602,6.675037384033203,6.668378829956055,54.95999526977539,79.24324798583984,66.02608489990234,4.964648246765137,4.956594467163086,4.980756123860677,0
1.853658007,true,0.0000698681306737121,0.00002387375424878166,2.1207215777639883,0.0,0.0,2.2242475987415835,11.325155258178711,11.324407577514648,11.32461929321289,6.671267032623291,6.675380229949951,6.672247886657715,55.43555450439453,79.55382537841797,65.84303283691406,5.040201822916666,5.032531102498372,5.059377670288086,0
1.863757203,true,-0.00008004156708933423,0.000019117290320806688,2.1327044971487963,0.0,0.0,2.236813969355943,11.38853645324707,11.388442993164062,11.388655662536621,6.675081253051758,6.674877166748047,6.676342010498047,54.2873420715332,80.72189331054688,63.689598083496094,5.098879814147949,5.0889081954956055,5.115371068318685,0
